{
  "updated": "2023-07-07",
  "shops": [
    {
      "id": "5",
      "pref": "1",
      "Name": "BIG BANG室蘭",
      "Address": "室蘭市中島本町2丁目8-1 BIGBANG室蘭",
      "Latitude": "42.353633",
      "Longitude": "141.014518",
      "ShopGroup": "1"
    },
    {
      "id": "27",
      "pref": "1",
      "Name": "MAXIMHERO",
      "Address": "札幌市北区北6条西6丁目鉄道高架下",
      "Latitude": "43.067951",
      "Longitude": "141.346007",
      "ShopGroup": "1"
    },
    {
      "id": "44",
      "pref": "1",
      "Name": "namcoアリオ札幌店",
      "Address": "札幌市東区北七条東9丁目2番20ｱﾘｵ札幌ｽﾊﾟ･ﾚｼﾞｬｰ館2F",
      "Latitude": "43.069846",
      "Longitude": "141.368544",
      "ShopGroup": "1"
    },
    {
      "id": "84",
      "pref": "1",
      "Name": "namcoウイングベイ小樽店",
      "Address": "小樽市北海道小樽市築港11番5号ｳｲﾝｸﾞﾍﾞｲ小樽5番街3階",
      "Latitude": "43.183854",
      "Longitude": "141.023126",
      "ShopGroup": "1"
    },
    {
      "id": "94",
      "pref": "1",
      "Name": "namcoサッポロファクトリー店",
      "Address": "札幌市中央区北1条東4丁目1番地1ｻｯﾎﾟﾛﾌｧｸﾄﾘｰ1条館2F",
      "Latitude": "43.064201",
      "Longitude": "141.363354",
      "ShopGroup": "1"
    },
    {
      "id": "132",
      "pref": "1",
      "Name": "namcoラソラ札幌店",
      "Address": "札幌市白石区東札幌3条1丁目1-1ﾗｿﾗ札幌店Aﾀｳﾝ2F",
      "Latitude": "43.055341",
      "Longitude": "141.384662",
      "ShopGroup": "1"
    },
    {
      "id": "147",
      "pref": "1",
      "Name": "namco札幌エスタ店",
      "Address": "札幌市中央区北5条西2丁目1番地1ｴｽﾀ9階",
      "Latitude": "43.067520",
      "Longitude": "141.353650",
      "ShopGroup": "2"
    },
    {
      "id": "180",
      "pref": "1",
      "Name": "PALO釧路",
      "Address": "釧路郡釧路町桂木1-1-7 ｲｵﾝ釧路店2階",
      "Latitude": "43.009038",
      "Longitude": "144.404606",
      "ShopGroup": "1"
    },
    {
      "id": "184",
      "pref": "1",
      "Name": "PALO江別",
      "Address": "江別市幸町35 ｲｵﾝ江別店3階",
      "Latitude": "43.097224",
      "Longitude": "141.533330",
      "ShopGroup": "1"
    },
    {
      "id": "195",
      "pref": "1",
      "Name": "PALO滝川",
      "Address": "滝川市東町2-29-1 ｲｵﾝ滝川店1F",
      "Latitude": "43.554168",
      "Longitude": "141.930987",
      "ShopGroup": "1"
    },
    {
      "id": "198",
      "pref": "1",
      "Name": "PALO苫小牧",
      "Address": "苫小牧市糸井135-1 ﾄﾗｲｱﾙG棟ﾄﾗｲｱﾙ苫小牧店",
      "Latitude": "42.612890",
      "Longitude": "141.524736",
      "ShopGroup": "1"
    },
    {
      "id": "202",
      "pref": "1",
      "Name": "PALO網走",
      "Address": "網走市駒場北5-83- 駒場ｼｮｯﾋﾟﾝｸﾞﾀｳﾝ",
      "Latitude": "44.002114",
      "Longitude": "144.284322",
      "ShopGroup": "1"
    },
    {
      "id": "208",
      "pref": "1",
      "Name": "SOYU Game Field苗穂",
      "Address": "札幌市東区東苗穂2条三丁目1番1号ｲｵﾝﾓｰﾙ札幌苗穂2F",
      "Latitude": "43.079664",
      "Longitude": "141.404000",
      "ShopGroup": "1"
    },
    {
      "id": "233",
      "pref": "1",
      "Name": "アドアーズ札幌北42条",
      "Address": "札幌市東区北42条東7-1-1 嶋ﾋﾞﾙ2階",
      "Latitude": "43.112038",
      "Longitude": "141.355184",
      "ShopGroup": "1"
    },
    {
      "id": "362",
      "pref": "1",
      "Name": "イオン小樽",
      "Address": "小樽市築港11-6",
      "Latitude": "43.184392",
      "Longitude": "141.021713",
      "ShopGroup": "1"
    },
    {
      "id": "370",
      "pref": "1",
      "Name": "イオン北見",
      "Address": "北見市北進町1-1-1",
      "Latitude": "43.808473",
      "Longitude": "143.875571",
      "ShopGroup": "1"
    },
    {
      "id": "374",
      "pref": "1",
      "Name": "イトーヨーカドーアリオ札幌",
      "Address": "札幌市東区北7条東9-2-20",
      "Latitude": "43.069846",
      "Longitude": "141.368544",
      "ShopGroup": "1"
    },
    {
      "id": "401",
      "pref": "1",
      "Name": "イトーヨーカドー琴似",
      "Address": "札幌市西区琴似二条1-4-1",
      "Latitude": "43.080723",
      "Longitude": "141.306157",
      "ShopGroup": "1"
    },
    {
      "id": "438",
      "pref": "1",
      "Name": "イトーヨーカドー屯田",
      "Address": "札幌市北区屯田八条3-5-1",
      "Latitude": "43.140249",
      "Longitude": "141.340839",
      "ShopGroup": "1"
    },
    {
      "id": "446",
      "pref": "1",
      "Name": "イトーヨーカドー福住",
      "Address": "札幌市豊平区福住二条1-2-5",
      "Latitude": "43.019872",
      "Longitude": "141.403494",
      "ShopGroup": "1"
    },
    {
      "id": "447",
      "pref": "1",
      "Name": "イトーヨーカドー北見",
      "Address": "北見市光西町185",
      "Latitude": "43.798189",
      "Longitude": "143.870171",
      "ShopGroup": "1"
    },
    {
      "id": "463",
      "pref": "1",
      "Name": "おもちゃのヨシダ本店",
      "Address": "旭川市本町3-437-238吉田ﾋﾞﾙ1F",
      "Latitude": "43.781027",
      "Longitude": "142.355981",
      "ShopGroup": "1"
    },
    {
      "id": "472",
      "pref": "1",
      "Name": "キッズパーク イオン帯広",
      "Address": "帯広市西4条南20丁目 ｲｵﾝ帯広",
      "Latitude": "42.908698",
      "Longitude": "143.200317",
      "ShopGroup": "1"
    },
    {
      "id": "477",
      "pref": "1",
      "Name": "キャッツアイ宮の沢",
      "Address": "札幌市手稲区西宮の沢5条2丁目11-15",
      "Latitude": "43.096417",
      "Longitude": "141.257313",
      "ShopGroup": "1"
    },
    {
      "id": "479",
      "pref": "1",
      "Name": "キャッツアイ篠路",
      "Address": "札幌市北区篠路1条4丁目6-30",
      "Latitude": "43.140638",
      "Longitude": "141.357187",
      "ShopGroup": "1"
    },
    {
      "id": "480",
      "pref": "1",
      "Name": "キャッツアイ新札幌",
      "Address": "札幌市厚別区厚別東五条1-1-10",
      "Latitude": "43.045646",
      "Longitude": "141.474921",
      "ShopGroup": "1"
    },
    {
      "id": "481",
      "pref": "1",
      "Name": "キャッツアイ新川",
      "Address": "札幌市北区新川二条7丁目1-7",
      "Latitude": "43.100749",
      "Longitude": "141.310247",
      "ShopGroup": "1"
    },
    {
      "id": "484",
      "pref": "1",
      "Name": "キャッツアイ東苗穂",
      "Address": "札幌市東区東苗穂6条2丁目1-25",
      "Latitude": "43.092361",
      "Longitude": "141.406969",
      "ShopGroup": "1"
    },
    {
      "id": "538",
      "pref": "1",
      "Name": "ディノスパーク帯広",
      "Address": "帯広市白樺十六条西2丁目ﾄﾞﾘｰﾑﾀｳﾝ白樺内",
      "Latitude": "42.918700",
      "Longitude": "143.173275",
      "ShopGroup": "1"
    },
    {
      "id": "621",
      "pref": "1",
      "Name": "ソユーゲームフィールド 旭川駅前",
      "Address": "旭川市宮下通7丁目2番5号ｲｵﾝﾓｰﾙ旭川駅前4F",
      "Latitude": "43.764312",
      "Longitude": "142.357948",
      "ShopGroup": "2"
    },
    {
      "id": "635",
      "pref": "1",
      "Name": "ソユーゲームフィールド 発寒",
      "Address": "札幌市西区発寒8条12丁目1番1号ｲｵﾝﾓｰﾙ札幌発寒3F",
      "Latitude": "43.096141",
      "Longitude": "141.277211",
      "ShopGroup": "2"
    },
    {
      "id": "637",
      "pref": "1",
      "Name": "ソユーゲームフィールド旭川西",
      "Address": "旭川市緑町二十三丁目2161番地3ｲｵﾝﾓｰﾙ旭川西3F",
      "Latitude": "43.793996",
      "Longitude": "142.325864",
      "ShopGroup": "1"
    },
    {
      "id": "708",
      "pref": "1",
      "Name": "タイトーステーション イオンモール釧路昭和",
      "Address": "釧路市昭和中央4-18-1 ｲｵﾝﾓｰﾙ釧路昭和2F",
      "Latitude": "43.026634",
      "Longitude": "144.359875",
      "ShopGroup": "1"
    },
    {
      "id": "710",
      "pref": "1",
      "Name": "タイトーステーション イオンモール札幌平岡",
      "Address": "札幌市清田区平岡3条5-3-1 ｲｵﾝﾓｰﾙ札幌平岡店2F",
      "Latitude": "42.997065",
      "Longitude": "141.458557",
      "ShopGroup": "1"
    },
    {
      "id": "738",
      "pref": "1",
      "Name": "タイトーステーション 札幌狸小路2丁目",
      "Address": "札幌市中央区南三条西2-14",
      "Latitude": "43.057331",
      "Longitude": "141.355471",
      "ShopGroup": "1"
    },
    {
      "id": "752",
      "pref": "1",
      "Name": "タイトーステーション 千歳",
      "Address": "千歳市北栄2-12-5",
      "Latitude": "42.833406",
      "Longitude": "141.645094",
      "ShopGroup": "1"
    },
    {
      "id": "797",
      "pref": "1",
      "Name": "トイザらス帯広音更",
      "Address": "河東郡音更町木野大通西17-1ｽｰﾊﾟｰｵｰｹｰｾﾝﾀｰ音更店内",
      "Latitude": "42.976585",
      "Longitude": "143.207482",
      "ShopGroup": "1"
    },
    {
      "id": "864",
      "pref": "1",
      "Name": "ハロータイトー 釧路貝塚",
      "Address": "釧路市貝塚3丁目2-28",
      "Latitude": "42.996244",
      "Longitude": "144.410466",
      "ShopGroup": "1"
    },
    {
      "id": "878",
      "pref": "1",
      "Name": "ビックカメラ札幌",
      "Address": "札幌市中央区北五条西2-1 札幌ESTAJRﾀﾜｰ4F",
      "Latitude": "43.067435",
      "Longitude": "141.352881",
      "ShopGroup": "1"
    },
    {
      "id": "1027",
      "pref": "1",
      "Name": "モーリーファンタジー旭川パルプ",
      "Address": "旭川市ﾊﾟﾙﾌﾟ町1条2-505-2 ｼｮｯﾋﾟﾝｸﾞCﾊﾟﾙﾌﾟﾀｳﾝ内1F",
      "Latitude": "43.775217",
      "Longitude": "142.384722",
      "ShopGroup": "1"
    },
    {
      "id": "1028",
      "pref": "1",
      "Name": "モーリーファンタジー旭川西",
      "Address": "旭川市緑町23-2161-3 ｲｵﾝ旭川西店2階",
      "Latitude": "43.793730",
      "Longitude": "142.327005",
      "ShopGroup": "1"
    },
    {
      "id": "1075",
      "pref": "1",
      "Name": "モーリーファンタジー釧路昭和",
      "Address": "釧路市昭和中央4-18-1 ｲｵﾝ釧路昭和店2階",
      "Latitude": "43.026634",
      "Longitude": "144.359875",
      "ShopGroup": "1"
    },
    {
      "id": "1116",
      "pref": "1",
      "Name": "モーリーファンタジー札幌琴似",
      "Address": "札幌市西区琴似2条4-2-2 ｲｵﾝ琴似店3F",
      "Latitude": "43.076716",
      "Longitude": "141.302831",
      "ShopGroup": "1"
    },
    {
      "id": "1117",
      "pref": "1",
      "Name": "モーリーファンタジー札幌桑園",
      "Address": "札幌市中央区北8条西14-28 ｲｵﾝ札幌桑園店2階",
      "Latitude": "43.069468",
      "Longitude": "141.332927",
      "ShopGroup": "1"
    },
    {
      "id": "1118",
      "pref": "1",
      "Name": "モーリーファンタジー札幌元町",
      "Address": "札幌市東区北31条東15-1-1 ｲｵﾝ札幌元町店3階",
      "Latitude": "43.101834",
      "Longitude": "141.368545",
      "ShopGroup": "1"
    },
    {
      "id": "1119",
      "pref": "1",
      "Name": "モーリーファンタジー札幌発寒",
      "Address": "札幌市西区発寒8条12-1-1 ｲｵﾝ札幌発寒店3階",
      "Latitude": "43.096446",
      "Longitude": "141.276422",
      "ShopGroup": "1"
    },
    {
      "id": "1120",
      "pref": "1",
      "Name": "モーリーファンタジー札幌苗穂",
      "Address": "札幌市東区東苗穂2条3-1-1 ｲｵﾝ札幌苗穂店2階",
      "Latitude": "43.079664",
      "Longitude": "141.404000",
      "ShopGroup": "1"
    },
    {
      "id": "1121",
      "pref": "1",
      "Name": "モーリーファンタジー札幌平岡",
      "Address": "札幌市清田区平岡3条5-3-1 ｲｵﾝ札幌平岡店2階",
      "Latitude": "42.997065",
      "Longitude": "141.458557",
      "ShopGroup": "1"
    },
    {
      "id": "1122",
      "pref": "1",
      "Name": "モーリーファンタジー札幌麻生",
      "Address": "札幌市北区北39 条西4-1-5ｲｵﾝ麻生店4F",
      "Latitude": "43.107290",
      "Longitude": "141.339721",
      "ShopGroup": "1"
    },
    {
      "id": "1125",
      "pref": "1",
      "Name": "モーリーファンタジー三笠",
      "Address": "三笠市岡山1059-1 ｲｵﾝSC三笠店1階",
      "Latitude": "43.243933",
      "Longitude": "141.805424",
      "ShopGroup": "1"
    },
    {
      "id": "1148",
      "pref": "1",
      "Name": "モーリーファンタジー手稲山口",
      "Address": "札幌市手稲区明日風6-1-1 ｲｵﾝSC手稲山口店1階",
      "Latitude": "43.142097",
      "Longitude": "141.233657",
      "ShopGroup": "1"
    },
    {
      "id": "1167",
      "pref": "1",
      "Name": "モーリーファンタジー上磯",
      "Address": "北斗市七重浜4-44-1 ｲｵﾝ上磯店1F",
      "Latitude": "41.821810",
      "Longitude": "140.712267",
      "ShopGroup": "1"
    },
    {
      "id": "1172",
      "pref": "1",
      "Name": "モーリーファンタジー新さっぽろ",
      "Address": "札幌市厚別区厚別中央2条5-6-2 duo22Fｹﾞｰﾑｺｰﾅｰ",
      "Latitude": "43.038972",
      "Longitude": "141.472490",
      "ShopGroup": "1"
    },
    {
      "id": "1197",
      "pref": "1",
      "Name": "モーリーファンタジー石狩緑苑台",
      "Address": "石狩市緑苑台中央1-2 ｲｵﾝSC石狩緑苑台店1階",
      "Latitude": "43.159047",
      "Longitude": "141.334938",
      "ShopGroup": "1"
    },
    {
      "id": "1239",
      "pref": "1",
      "Name": "モーリーファンタジー中標津",
      "Address": "標津郡中標津町南町3-10 東武ｻｳｽﾋﾙｽﾞ1F",
      "Latitude": "43.535427",
      "Longitude": "144.977231",
      "ShopGroup": "1"
    },
    {
      "id": "1264",
      "pref": "1",
      "Name": "モーリーファンタジー登別",
      "Address": "登別市若山町4-33-1 ｲｵﾝ登別店2階",
      "Latitude": "42.381349",
      "Longitude": "141.068467",
      "ShopGroup": "1"
    },
    {
      "id": "1276",
      "pref": "1",
      "Name": "モーリーファンタジー東札幌",
      "Address": "札幌市白石区東札幌3条2-1 ｲｵﾝ東札幌店2F",
      "Latitude": "43.052227",
      "Longitude": "141.385402",
      "ShopGroup": "1"
    },
    {
      "id": "1279",
      "pref": "1",
      "Name": "モーリーファンタジー湯川",
      "Address": "函館市湯川町3-14-5 ｲｵﾝ湯川店1･2F",
      "Latitude": "41.777669",
      "Longitude": "140.794059",
      "ShopGroup": "1"
    },
    {
      "id": "1283",
      "pref": "1",
      "Name": "モーリーファンタジー苫小牧",
      "Address": "苫小牧市柳町3-1-20 ｲｵﾝ苫小牧店2階",
      "Latitude": "42.656405",
      "Longitude": "141.642478",
      "ShopGroup": "1"
    },
    {
      "id": "1343",
      "pref": "1",
      "Name": "モーリーファンタジー名寄",
      "Address": "名寄市字徳田80-1 ｲｵﾝ名寄店2階",
      "Latitude": "44.338431",
      "Longitude": "142.452592",
      "ShopGroup": "1"
    },
    {
      "id": "1380",
      "pref": "1",
      "Name": "ヨドバシカメラマルチメディア札幌",
      "Address": "札幌市北区北6条西5-1-22",
      "Latitude": "43.068294",
      "Longitude": "141.347586",
      "ShopGroup": "1"
    },
    {
      "id": "1447",
      "pref": "1",
      "Name": "西條百貨店稚内",
      "Address": "稚内市大黒4-7-1",
      "Latitude": "45.397532",
      "Longitude": "141.692138",
      "ShopGroup": "1"
    },
    {
      "id": "1523",
      "pref": "1",
      "Name": "イトーヨーカドー帯広",
      "Address": "帯広市稲田町南8線西10-1",
      "Latitude": "42.890214",
      "Longitude": "143.198267",
      "ShopGroup": "1"
    },
    {
      "id": "1584",
      "pref": "1",
      "Name": "キャッツアイ苫小牧駅前",
      "Address": "苫小牧市木場町１丁目３",
      "Latitude": "42.642221",
      "Longitude": "141.598086",
      "ShopGroup": "1"
    }
  ]
}